[
  {
    "id": "1",
    "name": "Swedish Dental (Dentalum)",
    "address": "Kungsholmstorg 8, 112 21 Stockholm",
    "phone": "+46 8 651 36 20",
    "hours": "",
    "lat": 59.3318,
    "lng": 18.0392,
    "website": "https://swedishdental.com",
    "type": "onsite",
    "alignerBrands": [
      "invisalign"
    ]
  },
  {
    "id": "2",
    "name": "Erikssonkliniken",
    "address": "Götgatan 21, Stockholm",
    "phone": "+46 8 556 987 00",
    "hours": "",
    "lat": 59.3175,
    "lng": 18.0732,
    "website": "https://erikssonkliniken.se",
    "type": "onsite",
    "alignerBrands": [
      "invisalign",
      "clearcorrect"
    ]
  },
  {
    "id": "3",
    "name": "Samdent Arenastaden",
    "address": "Evenemangsgatan 21, Solna",
    "phone": "+46 8 333 455",
    "hours": "",
    "lat": 59.3708,
    "lng": 18.0018,
    "website": "https://samdent.se",
    "type": "onsite",
    "alignerBrands": [
      "invisalign",
      "clearcorrect"
    ]
  },
  {
    "id": "7",
    "name": "Tandläkarhuset Enköping (Dentalum)",
    "address": "Kryddgårdsgatan 21A, Enköping",
    "phone": "+46 171 42 81 60",
    "hours": "",
    "lat": 59.6357,
    "lng": 17.0767,
    "website": "https://entand.se/",
    "type": "onsite",
    "alignerBrands": [
      "invisalign"
    ]
  },
  {
    "id": "10",
    "name": "Gylle Tandvård Borlänge (Dentalum)",
    "address": "Sveagatan 21, 784 33 Borlänge",
    "phone": "+46 243 21 18 50",
    "hours": "",
    "lat": 60.4856,
    "lng": 15.4367,
    "website": "https://gylletandvard.se/",
    "type": "onsite",
    "alignerBrands": []
  },
  {
    "id": "4",
    "name": "Wasa Tandklinik",
    "address": "Tegnérgatan 8, Stockholm",
    "phone": "+46 8 21 01 85",
    "hours": "",
    "lat": 59.3408,
    "lng": 18.0573,
    "website": "https://wasatandklinik.se",
    "type": "partner",
    "alignerBrands": []
  },
  {
    "id": "5",
    "name": "Tegnértandläkarna",
    "address": "Tegnérgatan 3, 2 tr, Stockholm",
    "phone": "+46 8 10 99 01",
    "hours": "",
    "lat": 59.3404,
    "lng": 18.0565,
    "website": "https://tegnertandlakarna.se",
    "type": "partner",
    "alignerBrands": [
      "invisalign",
      "clearcorrect"
    ]
  },
  {
    "id": "6",
    "name": "S&S Dental",
    "address": "Storgatan 70C, Huvudsta Centrum, Solna",
    "phone": "+46 70 438 13 72",
    "hours": "",
    "lat": 59.3491,
    "lng": 18.0006,
    "website": "https://www.snsdental.se/",
    "type": "partner",
    "alignerBrands": [
      "invisalign"
    ]
  },
  {
    "id": "8",
    "name": "Tandvårdsgruppen Fruängen",
    "address": "Fruängsgången 2, Hägersten",
    "phone": "+46 8 464 64 70",
    "hours": "",
    "lat": 59.2852,
    "lng": 17.9654,
    "website": "https://tandvardsgruppen.se",
    "type": "partner",
    "alignerBrands": [
      "clearcorrect"
    ]
  },
  {
    "id": "9",
    "name": "Dorell Tandvård",
    "address": "Nytorgsgatan 3A, Örnsköldsvik",
    "phone": "+46 660 14 900",
    "hours": "",
    "lat": 63.2908,
    "lng": 18.7153,
    "website": "https://dorelltandvard.se",
    "type": "partner",
    "alignerBrands": [
      "invisalign"
    ]
  }
]
